{"type": "FeatureCollection", "features": [{"type": "Feature", "geometry": {"type": "Point", "coordinates": [-93.8601, 33.926859]}, "properties": {"objectid": 1, "state": "AR", "plant_name": "ACC", "plant_code": 67507, "sector_nam": "Electric utility non-cogen", "prime_move": "PV", "fuel_types": "SUN"}}, {"type": "Feature", "geometry": {"type": "Point", "coordinates": [-91.6279, 34.041298]}, "properties": {"objectid": 2, "state": "AR", "plant_name": "ADC Varner", "plant_code": 67513, "sector_nam": "Electric utility non-cogen", "prime_move": "PV", "fuel_types": "SUN"}}, {"type": "Feature", "geometry": {"type": "Point", "coordinates": [-93.2351, 35.311]}, "properties": {"objectid": 3, "state": "AR", "plant_name": "Arkansas Nuclear One", "plant_code": 8055, "sector_nam": "Electric utility", "prime_move": "ST", "fuel_types": "NUC"}}, {"type": "Feature", "geometry": {"type": "Point", "coordinates": [-94.1083, 33.6417]}, "properties": {"objectid": 4, "state": "AR", "plant_name": "Ashdown", "plant_code": 54104, "sector_nam": "Industrial cogen", "prime_move": "ST", "fuel_types": "NG,WDS,TDF,BIT,BLQ"}}, {"type": "Feature", "geometry": {"type": "Point", "coordinates": [-91.9224, 33.250825]}, "properties": {"objectid": 5, "state": "AR", "plant_name": "Ashley-Chicot Solar", "plant_code": 66588, "sector_nam": "Electric utility", "prime_move": "PV", "fuel_types": "SUN"}}, {"type": "Feature", "geometry": {"type": "Point", "coordinates": [-93.8474, 36.421507]}, "properties": {"objectid": 6, "state": "AR", "plant_name": "Beaver Dam", "plant_code": 182, "sector_nam": "Electric utility", "prime_move": "HY", "fuel_types": "WAT"}}, {"type": "Feature", "geometry": {"type": "Point", "coordinates": [-93.5862, 36.37342]}, "properties": {"objectid": 7, "state": "AR", "plant_name": "Berryville School District Solar", "plant_code": 66589, "sector_nam": "Electric utility", "prime_move": "PV", "fuel_types": "SUN"}}, {"type": "Feature", "geometry": {"type": "Point", "coordinates": [-90.3075, 35.3446]}, "properties": {"objectid": 8, "state": "AR", "plant_name": "Big Cypress Solar, LLC", "plant_code": 65483, "sector_nam": "Electric utility non-cogen", "prime_move": "PV", "fuel_types": "SUN"}}, {"type": "Feature", "geometry": {"type": "Point", "coordinates": [-93.1944, 34.570984]}, "properties": {"objectid": 9, "state": "AR", "plant_name": "Blakely Mountain", "plant_code": 197, "sector_nam": "Electric utility", "prime_move": "HY", "fuel_types": "WAT"}}, {"type": "Feature", "geometry": {"type": "Point", "coordinates": [-93.9258, 35.306183]}, "properties": {"objectid": 10, "state": "AR", "plant_name": "Branch Solar Farm", "plant_code": 64392, "sector_nam": "Electric utility", "prime_move": "PV", "fuel_types": "SUN"}}, {"type": "Feature", "geometry": {"type": "Point", "coordinates": [-92.5763, 36.3635]}, "properties": {"objectid": 11, "state": "AR", "plant_name": "Bull Shoals", "plant_code": 198, "sector_nam": "Electric utility", "prime_move": "HY", "fuel_types": "WAT"}}, {"type": "Feature", "geometry": {"type": "Point", "coordinates": [-91.8283, 34.07]}, "properties": {"objectid": 12, "state": "AR", "plant_name": "C&L", "plant_code": 66590, "sector_nam": "Electric utility", "prime_move": "PV", "fuel_types": "SUN"}}, {"type": "Feature", "geometry": {"type": "Point", "coordinates": [-93.0262, 34.075486]}, "properties": {"objectid": 13, "state": "AR", "plant_name": "Carpenter", "plant_code": 166, "sector_nam": "Electric utility", "prime_move": "HY", "fuel_types": "WAT"}}, {"type": "Feature", "geometry": {"type": "Point", "coordinates": [-91.349, 33.479]}, "properties": {"objectid": 14, "state": "AR", "plant_name": "Chicot Solar", "plant_code": 63295, "sector_nam": "Electric utility non-cogen", "prime_move": "PV", "fuel_types": "SUN"}}, {"type": "Feature", "geometry": {"type": "Point", "coordinates": [-93.5428, 36.3674]}, "properties": {"objectid": 15, "state": "AR", "plant_name": "City of Green Forest (Carroll)", "plant_code": 67514, "sector_nam": "Electric utility non-cogen", "prime_move": "PV", "fuel_types": "SUN"}}, {"type": "Feature", "geometry": {"type": "Point", "coordinates": [-93.734, 35.301]}, "properties": {"objectid": 16, "state": "AR", "plant_name": "City of Paris Solar", "plant_code": 64444, "sector_nam": "Electric utility", "prime_move": "PV", "fuel_types": "SUN"}}, {"type": "Feature", "geometry": {"type": "Point", "coordinates": [-90.6425, 36.41931]}, "properties": {"objectid": 17, "state": "AR", "plant_name": "Clay County Electrical Cooperative", "plant_code": 66607, "sector_nam": "Electric utility", "prime_move": "PV", "fuel_types": "SUN"}}, {"type": "Feature", "geometry": {"type": "Point", "coordinates": [-91.2371, 33.7061]}, "properties": {"objectid": 18, "state": "AR", "plant_name": "Clearwater Paper APP CB", "plant_code": 50638, "sector_nam": "Industrial cogen", "prime_move": "ST", "fuel_types": "NG,DFO,BLQ"}}, {"type": "Feature", "geometry": {"type": "Point", "coordinates": [-90.5672, 35.92226]}, "properties": {"objectid": 19, "state": "AR", "plant_name": "Craighead Electric Solar One", "plant_code": 66608, "sector_nam": "Electric utility", "prime_move": "PV", "fuel_types": "SUN"}}, {"type": "Feature", "geometry": {"type": "Point", "coordinates": [-89.7843, 35.9147]}, "properties": {"objectid": 20, "state": "AR", "plant_name": "Crooked Lake Solar, LLC", "plant_code": 66185, "sector_nam": "Electric utility non-cogen", "prime_move": "PV", "fuel_types": "SUN"}}, {"type": "Feature", "geometry": {"type": "Point", "coordinates": [-91.9411, 33.13119]}, "properties": {"objectid": 21, "state": "AR", "plant_name": "Crossett SD", "plant_code": 67515, "sector_nam": "Electric utility non-cogen", "prime_move": "PV", "fuel_types": "SUN"}}, {"type": "Feature", "geometry": {"type": "Point", "coordinates": [-91.3458, 33.9865]}, "properties": {"objectid": 22, "state": "AR", "plant_name": "Dam 2", "plant_code": 7246, "sector_nam": "Electric utility", "prime_move": "HY", "fuel_types": "WAT"}}, {"type": "Feature", "geometry": {"type": "Point", "coordinates": [-93.1686, 35.2503]}, "properties": {"objectid": 23, "state": "AR", "plant_name": "Dardanelle", "plant_code": 199, "sector_nam": "Electric utility", "prime_move": "HY", "fuel_types": "WAT"}}, {"type": "Feature", "geometry": {"type": "Point", "coordinates": [-93.111, 34.21191]}, "properties": {"objectid": 24, "state": "AR", "plant_name": "Degray", "plant_code": 187, "sector_nam": "Electric utility", "prime_move": "HY,PS", "fuel_types": "WAT"}}, {"type": "Feature", "geometry": {"type": "Point", "coordinates": [-90.0253, 35.8619]}, "properties": {"objectid": 25, "state": "AR", "plant_name": "Dell Power Station", "plant_code": 55340, "sector_nam": "Electric utility", "prime_move": "CT", "fuel_types": "NG,DFO"}}, {"type": "Feature", "geometry": {"type": "Point", "coordinates": [-92.6215, 3321294.0]}, "properties": {"objectid": 26, "state": "AR", "plant_name": "El Dorado AR", "plant_code": 67517, "sector_nam": "Electric utility non-cogen", "prime_move": "PV", "fuel_types": "SUN"}}, {"type": "Feature", "geometry": {"type": "Point", "coordinates": [-94.0014, 35.9714]}, "properties": {"objectid": 27, "state": "AR", "plant_name": "Elkins Generating Center", "plant_code": 56489, "sector_nam": "Electric utility", "prime_move": "GT", "fuel_types": "NG"}}, {"type": "Feature", "geometry": {"type": "Point", "coordinates": [-94.2943, 35.35136]}, "properties": {"objectid": 28, "state": "AR", "plant_name": "Ellis Hydro", "plant_code": 7040, "sector_nam": "Electric utility", "prime_move": "HY", "fuel_types": "WAT"}}, {"type": "Feature", "geometry": {"type": "Point", "coordinates": [-92.5783, 34.63843]}, "properties": {"objectid": 29, "state": "AR", "plant_name": "FECC Solar Benton", "plant_code": 61839, "sector_nam": "Electric utility", "prime_move": "PV", "fuel_types": "SUN"}}, {"type": "Feature", "geometry": {"type": "Point", "coordinates": [-91.2305, 35.62955]}, "properties": {"objectid": 30, "state": "AR", "plant_name": "Farmers Electric Cooperative", "plant_code": 66610, "sector_nam": "Electric utility", "prime_move": "PV", "fuel_types": "SUN"}}, {"type": "Feature", "geometry": {"type": "Point", "coordinates": [-94.0205, 36.00493]}, "properties": {"objectid": 31, "state": "AR", "plant_name": "Fayetteville Public Schools (Ozarks)", "plant_code": 67518, "sector_nam": "Electric utility non-cogen", "prime_move": "PV", "fuel_types": "SUN"}}, {"type": "Feature", "geometry": {"type": "Point", "coordinates": [-94.1601, 36.09308]}, "properties": {"objectid": 32, "state": "AR", "plant_name": "Fayetteville Public Schools (SWEPCO)", "plant_code": 67519, "sector_nam": "Electric utility non-cogen", "prime_move": "PV", "fuel_types": "SUN"}}, {"type": "Feature", "geometry": {"type": "Point", "coordinates": [-94.5241, 36.2561]}, "properties": {"objectid": 33, "state": "AR", "plant_name": "Flint Creek", "plant_code": 6138, "sector_nam": "Electric utility", "prime_move": "ST", "fuel_types": "DFO,SUB"}}, {"type": "Feature", "geometry": {"type": "Point", "coordinates": [-90.8071, 35.03789]}, "properties": {"objectid": 34, "state": "AR", "plant_name": "Forrest City- Eldridge Road", "plant_code": 64262, "sector_nam": "Electric utility non-cogen", "prime_move": "PV", "fuel_types": "SUN"}}, {"type": "Feature", "geometry": {"type": "Point", "coordinates": [-90.806, 34.97953]}, "properties": {"objectid": 35, "state": "AR", "plant_name": "Forrest City- Prison Site", "plant_code": 64261, "sector_nam": "Electric utility non-cogen", "prime_move": "PV", "fuel_types": "SUN"}}, {"type": "Feature", "geometry": {"type": "Point", "coordinates": [-93.7924, 33.6094]}, "properties": {"objectid": 36, "state": "AR", "plant_name": "Fulton (AR)", "plant_code": 7825, "sector_nam": "Electric utility", "prime_move": "GT", "fuel_types": "NG"}}, {"type": "Feature", "geometry": {"type": "Point", "coordinates": [-92.541, 33.602]}, "properties": {"objectid": 37, "state": "AR", "plant_name": "General Dynamics", "plant_code": 65351, "sector_nam": "Industrial non-cogen", "prime_move": "PV", "fuel_types": "SUN"}}, {"type": "Feature", "geometry": {"type": "Point", "coordinates": [-91.9953, 35.5207]}, "properties": {"objectid": 38, "state": "AR", "plant_name": "Greers Ferry Lake", "plant_code": 188, "sector_nam": "Electric utility", "prime_move": "HY", "fuel_types": "WAT"}}, {"type": "Feature", "geometry": {"type": "Point", "coordinates": [-91.6603, 35.16772]}, "properties": {"objectid": 39, "state": "AR", "plant_name": "Happy Solar 1", "plant_code": 63766, "sector_nam": "Electric utility non-cogen", "prime_move": "PV", "fuel_types": "SUN"}}, {"type": "Feature", "geometry": {"type": "Point", "coordinates": [-94.2841, 36.1855]}, "properties": {"objectid": 40, "state": "AR", "plant_name": "Harry D Mattison Gas Plant", "plant_code": 56328, "sector_nam": "Electric utility", "prime_move": "GT", "fuel_types": "NG"}}, {"type": "Feature", "geometry": {"type": "Point", "coordinates": [-92.2166, 34.5923]}, "properties": {"objectid": 41, "state": "AR", "plant_name": "Harry L. Oswald", "plant_code": 55221, "sector_nam": "Electric utility", "prime_move": "CT", "fuel_types": "NG"}}, {"type": "Feature", "geometry": {"type": "Point", "coordinates": [-92.8683, 34.29759]}, "properties": {"objectid": 42, "state": "AR", "plant_name": "Hot Spring Generating Facility", "plant_code": 55418, "sector_nam": "Electric utility", "prime_move": "CT,CA", "fuel_types": "NG"}}, {"type": "Feature", "geometry": {"type": "Point", "coordinates": [-93.1949, 34.421]}, "properties": {"objectid": 43, "state": "AR", "plant_name": "Hot Springs 2020", "plant_code": 64263, "sector_nam": "Electric utility non-cogen", "prime_move": "PV", "fuel_types": "SUN"}}, {"type": "Feature", "geometry": {"type": "Point", "coordinates": [-91.4088, 35.67442]}, "properties": {"objectid": 44, "state": "AR", "plant_name": "Independence Steam Electric Station", "plant_code": 6641, "sector_nam": "Electric utility", "prime_move": "ST", "fuel_types": "DFO,SUB"}}, {"type": "Feature", "geometry": {"type": "Point", "coordinates": [-93.8119, 33.64972]}, "properties": {"objectid": 45, "state": "AR", "plant_name": "John W Turk Jr Power Plant", "plant_code": 56564, "sector_nam": "Electric utility", "prime_move": "ST", "fuel_types": "NG,SUB"}}, {"type": "Feature", "geometry": {"type": "Point", "coordinates": [-90.5787, 35.81427]}, "properties": {"objectid": 46, "state": "AR", "plant_name": "Jonesboro CWL Solar Park", "plant_code": 67487, "sector_nam": "Electric utility", "prime_move": "PV", "fuel_types": "SUN"}}, {"type": "Feature", "geometry": {"type": "Point", "coordinates": [-90.7254, 35.84856]}, "properties": {"objectid": 47, "state": "AR", "plant_name": "Jonesboro City Water & Light Plant", "plant_code": 56505, "sector_nam": "Electric utility", "prime_move": "GT", "fuel_types": "NG,DFO"}}, {"type": "Feature", "geometry": {"type": "Point", "coordinates": [-93.8709, 35.14741]}, "properties": {"objectid": 48, "state": "AR", "plant_name": "LRWRA", "plant_code": 67520, "sector_nam": "Electric utility non-cogen", "prime_move": "PV", "fuel_types": "SUN"}}, {"type": "Feature", "geometry": {"type": "Point", "coordinates": [-92.9049, 34.4341]}, "properties": {"objectid": 49, "state": "AR", "plant_name": "Lake Catherine", "plant_code": 170, "sector_nam": "Electric utility", "prime_move": "ST", "fuel_types": "NG"}}, {"type": "Feature", "geometry": {"type": "Point", "coordinates": [-94.3929, 35.48449]}, "properties": {"objectid": 50, "state": "AR", "plant_name": "Lee Creek Water Treatment Facility", "plant_code": 54283, "sector_nam": "Electric utility non-cogen", "prime_move": "HY", "fuel_types": "WAT"}}, {"type": "Feature", "geometry": {"type": "Point", "coordinates": [-92.8317, 34.4297]}, "properties": {"objectid": 51, "state": "AR", "plant_name": "Magnet Cove", "plant_code": 55714, "sector_nam": "Electric utility", "prime_move": "CT,CA", "fuel_types": "NG"}}, {"type": "Feature", "geometry": {"type": "Point", "coordinates": [-92.7917, 33.5648]}, "properties": {"objectid": 52, "state": "AR", "plant_name": "McClellan (AR)", "plant_code": 203, "sector_nam": "Electric utility", "prime_move": "ST", "fuel_types": "NG,DFO"}}, {"type": "Feature", "geometry": {"type": "Point", "coordinates": [-92.3569, 34.7956]}, "properties": {"objectid": 53, "state": "AR", "plant_name": "Murray", "plant_code": 7166, "sector_nam": "Electric utility", "prime_move": "HY", "fuel_types": "WAT"}}, {"type": "Feature", "geometry": {"type": "Point", "coordinates": [-93.7152, 34.14843]}, "properties": {"objectid": 54, "state": "AR", "plant_name": "Narrows (AR)", "plant_code": 195, "sector_nam": "Electric utility", "prime_move": "HY", "fuel_types": "WAT"}}, {"type": "Feature", "geometry": {"type": "Point", "coordinates": [-91.1871, 35.6689]}, "properties": {"objectid": 55, "state": "AR", "plant_name": "Newport Solar Project", "plant_code": 66112, "sector_nam": "Electric utility non-cogen", "prime_move": "PV", "fuel_types": "SUN"}}, {"type": "Feature", "geometry": {"type": "Point", "coordinates": [-94.0671, 36.0823]}, "properties": {"objectid": 56, "state": "AR", "plant_name": "Noland Wastewater Treatment Plant Hybrid", "plant_code": 62682, "sector_nam": "Commercial non-cogen", "prime_move": "BA,PV", "fuel_types": "MWH,SUN"}}, {"type": "Feature", "geometry": {"type": "Point", "coordinates": [-92.2401, 36.4291]}, "properties": {"objectid": 57, "state": "AR", "plant_name": "Norfork", "plant_code": 196, "sector_nam": "Electric utility", "prime_move": "HY", "fuel_types": "WAT"}}, {"type": "Feature", "geometry": {"type": "Point", "coordinates": [-93.8175, 35.4693]}, "properties": {"objectid": 58, "state": "AR", "plant_name": "Ozark", "plant_code": 6142, "sector_nam": "Electric utility", "prime_move": "HY", "fuel_types": "WAT"}}, {"type": "Feature", "geometry": {"type": "Point", "coordinates": [-94.0823, 36.1643]}, "properties": {"objectid": 59, "state": "AR", "plant_name": "Ozarks Natural Energy Community Solar", "plant_code": 60924, "sector_nam": "Electric utility", "prime_move": "PV", "fuel_types": "SUN"}}, {"type": "Feature", "geometry": {"type": "Point", "coordinates": [-90.4881, 36.02568]}, "properties": {"objectid": 60, "state": "AR", "plant_name": "Paragould Reciprocating", "plant_code": 8015, "sector_nam": "Electric utility", "prime_move": "IC", "fuel_types": "NG"}}, {"type": "Feature", "geometry": {"type": "Point", "coordinates": [-90.4885, 36.02574]}, "properties": {"objectid": 61, "state": "AR", "plant_name": "Paragould Solar Farm", "plant_code": 67188, "sector_nam": "Electric utility", "prime_move": "PV", "fuel_types": "SUN"}}, {"type": "Feature", "geometry": {"type": "Point", "coordinates": [-90.5092, 36.02427]}, "properties": {"objectid": 62, "state": "AR", "plant_name": "Paragould Turbine", "plant_code": 7283, "sector_nam": "Electric utility", "prime_move": "GT", "fuel_types": "NG"}}, {"type": "Feature", "geometry": {"type": "Point", "coordinates": [-91.9025, 34.2181]}, "properties": {"objectid": 63, "state": "AR", "plant_name": "Pine Bluff Energy Center", "plant_code": 55075, "sector_nam": "Electric utility cogen", "prime_move": "CT,CA", "fuel_types": "NG"}}, {"type": "Feature", "geometry": {"type": "Point", "coordinates": [-91.9074, 34.22121]}, "properties": {"objectid": 64, "state": "AR", "plant_name": "Pine Bluff Mill", "plant_code": 10627, "sector_nam": "Industrial cogen", "prime_move": "ST", "fuel_types": "NG,BLQ"}}, {"type": "Feature", "geometry": {"type": "Point", "coordinates": [-89.9489, 35.6644]}, "properties": {"objectid": 65, "state": "AR", "plant_name": "Plum Point Energy Station", "plant_code": 56456, "sector_nam": "Electric utility non-cogen", "prime_move": "ST", "fuel_types": "DFO,SUB"}}, {"type": "Feature", "geometry": {"type": "Point", "coordinates": [-92.8941, 34.4272]}, "properties": {"objectid": 66, "state": "AR", "plant_name": "Remmel", "plant_code": 174, "sector_nam": "Electric utility", "prime_move": "HY", "fuel_types": "WAT"}}, {"type": "Feature", "geometry": {"type": "Point", "coordinates": [-90.1049, 35.61807]}, "properties": {"objectid": 67, "state": "AR", "plant_name": "Rivercrest SD", "plant_code": 67521, "sector_nam": "Electric utility non-cogen", "prime_move": "PV", "fuel_types": "SUN"}}, {"type": "Feature", "geometry": {"type": "Point", "coordinates": [-92.7036, 33.63154]}, "properties": {"objectid": 68, "state": "AR", "plant_name": "SR Camden", "plant_code": 59947, "sector_nam": "Electric utility non-cogen", "prime_move": "PV", "fuel_types": "SUN"}}, {"type": "Feature", "geometry": {"type": "Point", "coordinates": [-93.5152, 35.46715]}, "properties": {"objectid": 69, "state": "AR", "plant_name": "Scenic Hill Solar III", "plant_code": 61869, "sector_nam": "Electric utility non-cogen", "prime_move": "PV", "fuel_types": "SUN"}}, {"type": "Feature", "geometry": {"type": "Point", "coordinates": [-93.4464, 35.47056]}, "properties": {"objectid": 70, "state": "AR", "plant_name": "Scenic Hill Solar IV, LLC", "plant_code": 63627, "sector_nam": "Electric utility non-cogen", "prime_move": "PV", "fuel_types": "SUN"}}, {"type": "Feature", "geometry": {"type": "Point", "coordinates": [-91.69, 35.233]}, "properties": {"objectid": 71, "state": "AR", "plant_name": "Searcy Solar Hybrid", "plant_code": 62617, "sector_nam": "Electric utility", "prime_move": "PV", "fuel_types": "SUN"}}, {"type": "Feature", "geometry": {"type": "Point", "coordinates": [-91.7159, 35.2659]}, "properties": {"objectid": 72, "state": "AR", "plant_name": "Searcy Water I", "plant_code": 67522, "sector_nam": "Electric utility non-cogen", "prime_move": "PV", "fuel_types": "SUN"}}, {"type": "Feature", "geometry": {"type": "Point", "coordinates": [-91.7222, 35.20791]}, "properties": {"objectid": 73, "state": "AR", "plant_name": "Searcy Water II", "plant_code": 67523, "sector_nam": "Electric utility non-cogen", "prime_move": "PV", "fuel_types": "SUN"}}, {"type": "Feature", "geometry": {"type": "Point", "coordinates": [-91.1968, 34.72442]}, "properties": {"objectid": 74, "state": "AR", "plant_name": "Southside SD", "plant_code": 67524, "sector_nam": "Electric utility non-cogen", "prime_move": "PV", "fuel_types": "SUN"}}, {"type": "Feature", "geometry": {"type": "Point", "coordinates": [-91.44, 34.43972]}, "properties": {"objectid": 75, "state": "AR", "plant_name": "Stuttgart Solar", "plant_code": 61262, "sector_nam": "Electric utility non-cogen", "prime_move": "PV", "fuel_types": "SUN"}}, {"type": "Feature", "geometry": {"type": "Point", "coordinates": [-93.8049, 35.46238]}, "properties": {"objectid": 76, "state": "AR", "plant_name": "Thomas Fitzhugh", "plant_code": 201, "sector_nam": "Electric utility", "prime_move": "CT", "fuel_types": "NG"}}, {"type": "Feature", "geometry": {"type": "Point", "coordinates": [-91.1571, 34.8332]}, "properties": {"objectid": 77, "state": "AR", "plant_name": "Two Pine Landfill Gas Recovery", "plant_code": 56523, "sector_nam": "Electric utility non-cogen", "prime_move": "IC", "fuel_types": "LFG"}}, {"type": "Feature", "geometry": {"type": "Point", "coordinates": [-94.1723, 36.06634]}, "properties": {"objectid": 78, "state": "AR", "plant_name": "UA Central Utility Plant", "plant_code": 60536, "sector_nam": "Commercial cogen", "prime_move": "GT", "fuel_types": "NG"}}, {"type": "Feature", "geometry": {"type": "Point", "coordinates": [-93.8589, 33.92658]}, "properties": {"objectid": 79, "state": "AR", "plant_name": "UADA", "plant_code": 67526, "sector_nam": "Electric utility non-cogen", "prime_move": "PV", "fuel_types": "SUN"}}, {"type": "Feature", "geometry": {"type": "Point", "coordinates": [-92.5894, 33.29615]}, "properties": {"objectid": 80, "state": "AR", "plant_name": "Union Power Station", "plant_code": 55380, "sector_nam": "Electric utility", "prime_move": "CT,CA", "fuel_types": "NG"}}, {"type": "Feature", "geometry": {"type": "Point", "coordinates": [-94.1401, 36.04135]}, "properties": {"objectid": 81, "state": "AR", "plant_name": "Westside Wastewater Treatment Plant Hybrid", "plant_code": 62683, "sector_nam": "Commercial non-cogen", "prime_move": "BA,PV", "fuel_types": "MWH,SUN"}}, {"type": "Feature", "geometry": {"type": "Point", "coordinates": [-92.7903, 35.12759]}, "properties": {"objectid": 82, "state": "AR", "plant_name": "Whillock", "plant_code": 7135, "sector_nam": "Electric utility", "prime_move": "HY", "fuel_types": "WAT"}}, {"type": "Feature", "geometry": {"type": "Point", "coordinates": [-92.1406, 34.4228]}, "properties": {"objectid": 83, "state": "AR", "plant_name": "White Bluff", "plant_code": 6009, "sector_nam": "Electric utility", "prime_move": "ST", "fuel_types": "DFO,SUB"}}, {"type": "Feature", "geometry": {"type": "Point", "coordinates": [-91.6369, 35.7574]}, "properties": {"objectid": 84, "state": "AR", "plant_name": "White River Lock and Dam 1", "plant_code": 57160, "sector_nam": "Electric utility non-cogen", "prime_move": "HY", "fuel_types": "WAT"}}, {"type": "Feature", "geometry": {"type": "Point", "coordinates": [-91.7654, 34.74404]}, "properties": {"objectid": 85, "state": "AR", "plant_name": "White River Lock and Dam 2", "plant_code": 57161, "sector_nam": "Electric utility non-cogen", "prime_move": "HY", "fuel_types": "WAT"}}, {"type": "Feature", "geometry": {"type": "Point", "coordinates": [-91.8505, 35.84361]}, "properties": {"objectid": 86, "state": "AR", "plant_name": "White River Lock and Dam 3", "plant_code": 57162, "sector_nam": "Electric utility non-cogen", "prime_move": "HY", "fuel_types": "WAT"}}, {"type": "Feature", "geometry": {"type": "Point", "coordinates": [-91.257, 35.60977]}, "properties": {"objectid": 87, "state": "AR", "plant_name": "White River Medical Center", "plant_code": 67527, "sector_nam": "Electric utility non-cogen", "prime_move": "PV", "fuel_types": "SUN"}}]}